id,name.local,name.en,name.slug,code.id,zip_codes,geo.lat,geo.lon
BD55520002,আদিতমারী,Aditmari,aditmari-bd55520002,BD55520002,5510,25.943,89.368
BD55520033,হাতীবান্ধা,Hatibandha,hatibandha-bd55520033,BD55520033,5530,26.12,89.144
BD55520039,কালীগঞ্জ,Kaliganj,kaliganj-bd55520039,BD55520039,1720,25.986,89.242
BD55520055,লালমনিরহাট সদর,Lalmonirhat Sadar,lalmonirhat-sadar-bd55520055,BD55520055,5502,25.879,89.453
BD55520070,পাটগ্রাম,Patgram,patgram-bd55520070,BD55520070,5541,26.343,89.02
