id,name.local,name.en,name.slug,code.id,zip_codes,geo.lat,geo.lon
BD45890037,ঝিনাইগাতী,Jhenaigati,jhenaigati-bd45890037,BD45890037,2120,25.182,90.054
BD45890067,নকলা,Nakla,nakla-bd45890067,BD45890067,2151,24.958,90.185
BD45890070,নালিতাবাড়ী,Nalitabari,nalitabari-bd45890070,BD45890070,2111,25.117,90.184
BD45890088,শেরপুর সদর,Sherpur Sadar,sherpur-sadar-bd45890088,BD45890088,7101,24.991,90.022
BD45890090,শ্রীবরদী,Sreebardi,sreebardi-bd45890090,BD45890090,2130,25.165,89.957
