id,name.local,name.en,name.slug,code.id,zip_codes,geo.lat,geo.lon
BD55940008,বালিয়াডাঙ্গী,Baliadangi,baliadangi-bd55940008,BD55940008,5140,26.108,88.263
BD55940051,হরিপুর,Haripur,haripur-bd55940051,BD55940051,1741,25.879,88.155
BD55940082,পীরগঞ্জ,Pirganj,pirganj-bd55940082,BD55940082,5110,25.842,88.368
BD55940086,রাণীশংকৈল,Ranishankail,ranishankail-bd55940086,BD55940086,5120,25.941,88.246
BD55940094,ঠাকুরগাঁও সদর,Thakurgaon Sadar,thakurgaon-sadar-bd55940094,BD55940094,5103,26.072,88.464
